{
  "space_invaders": [
    {
      "name": "Zog",
      "color": "green",
      "funny_fact": "Zog loves to eat asteroid sandwiches!",
      "location": {
        "longitude": 4.4751,
        "latitude": 51.9242
      }
    },
    {
      "name": "Glix",
      "color": "blue",
      "funny_fact": "Glix communicates through intergalactic dance moves!",
      "location": {
        "longitude": 4.4823,
        "latitude": 51.9208
      }
    },
    {
      "name": "Blip",
      "color": "red",
      "funny_fact": "Blip is afraid of black holes!",
      "location": {
        "longitude": 4.4785,
        "latitude": 51.9219
      }
    },
    {
      "name": "Flurp",
      "color": "purple",
      "funny_fact": "Flurp once mistook a comet for a giant space marshmallow!",
      "location": {
        "longitude": 4.4742,
        "latitude": 51.9233
      }
    },
    {
      "name": "Snix",
      "color": "yellow",
      "funny_fact": "Snix dreams of opening a space-themed bakery!",
      "location": {
        "longitude": 4.4804,
        "latitude": 51.9250
      }
    },
    {
      "name": "Klop",
      "color": "orange",
      "funny_fact": "Klop's favorite hobby is asteroid surfing!",
      "location": {
        "longitude": 4.4768,
        "latitude": 51.9221
      }
    },
    {
      "name": "Dweeb",
      "color": "pink",
      "funny_fact": "Dweeb collects space rocks as souvenirs!",
      "location": {
        "longitude": 4.4779,
        "latitude": 51.9245
      }
    },
    {
      "name": "Bloop",
      "color": "teal",
      "funny_fact": "Bloop's spaceship runs on cosmic energy!",
      "location": {
        "longitude": 4.4816,
        "latitude": 51.9230
      }
    },
    {
      "name": "Quix",
      "color": "brown",
      "funny_fact": "Quix is a master at zero-gravity yoga!",
      "location": {
        "longitude": 4.4749,
        "latitude": 51.9215
      }
    },
    {
      "name": "Chirp",
      "color": "turquoise",
      "funny_fact": "Chirp has a secret stash of space disco music!",
      "location": {
        "longitude": 4.4798,
        "latitude": 51.9229
      }
    }
  ]
}
