{
  "space_invaders": [
    {
      "id": 1,
      "name": "Zog",
      "color": "green",
      "funny_fact": "Zog loves to eat asteroid sandwiches!",
      "location": {
        "longitude": 4.4751,
        "latitude": 51.9242
      }
    },
    {
      "id": 2,
      "name": "Glix",
      "color": "blue",
      "funny_fact": "Glix communicates through intergalactic dance moves!",
      "location": {
        "longitude": 4.4823,
        "latitude": 51.9208
      }
    },
    {
      "id": 3,
      "name": "Blip",
      "color": "red",
      "funny_fact": "Blip is afraid of black holes!",
      "location": {
        "longitude": 4.4785,
        "latitude": 51.9219
      }
    },
    {
      "id": 4,
      "name": "Flurp",
      "color": "purple",
      "funny_fact": "Flurp once mistook a comet for a giant space marshmallow!",
      "location": {
        "longitude": 4.4742,
        "latitude": 51.9233
      }
    },
    {
      "id": 5,
      "name": "Snix",
      "color": "yellow",
      "funny_fact": "Snix dreams of opening a space-themed bakery!",
      "location": {
        "longitude": 4.4804,
        "latitude": 51.9250
      }
    },
    {
      "id": 6,
      "name": "Klop",
      "color": "orange",
      "funny_fact": "Klop's favorite hobby is asteroid surfing!",
      "location": {
        "longitude": 4.4768,
        "latitude": 51.9221
      }
    },
    {
      "id": 7,
      "name": "Dweeb",
      "color": "pink",
      "funny_fact": "Dweeb collects space rocks as souvenirs!",
      "location": {
        "longitude": 4.4779,
        "latitude": 51.9245
      }
    },
    {
      "id": 8,
      "name": "Bloop",
      "color": "teal",
      "funny_fact": "Bloop's spaceship runs on cosmic energy!",
      "location": {
        "longitude": 4.4816,
        "latitude": 51.9230
      }
    },
    {
      "id": 9,
      "name": "Quix",
      "color": "brown",
      "funny_fact": "Quix is a master at zero-gravity yoga!",
      "location": {
        "longitude": 4.4749,
        "latitude": 51.9215
      }
    },
    {
      "id": 10,
      "name": "Chirp",
      "color": "turquoise",
      "funny_fact": "Chirp has a secret stash of space disco music!",
      "location": {
        "longitude": 4.4798,
        "latitude": 51.9229
      }
    },
    {
      "id": 11,
      "name": "Zorp",
      "color": "lime",
      "funny_fact": "Zorp can juggle six asteroids at once!",
      "location": {
        "longitude": 4.4760,
        "latitude": 51.9252
      }
    },
    {
      "id": 12,
      "name": "Fiz",
      "color": "maroon",
      "funny_fact": "Fiz has a pet nebula named Fluffy!",
      "location": {
        "longitude": 4.4782,
        "latitude": 51.9238
      }
    },
    {
      "id": 13,
      "name": "Gloop",
      "color": "navy",
      "funny_fact": "Gloop plays the cosmic harmonica!",
      "location": {
        "longitude": 4.4810,
        "latitude": 51.9212
      }
    },
    {
      "id": 14,
      "name": "Plip",
      "color": "magenta",
      "funny_fact": "Plip loves meteor showers, but only from a distance!",
      "location": {
        "longitude": 4.4753,
        "latitude": 51.9227
      }
    },
    {
      "id": 15,
      "name": "Tron",
      "color": "cyan",
      "funny_fact": "Tron once won a galactic hula hoop contest!",
      "location": {
        "longitude": 4.4786,
        "latitude": 51.9235
      }
    },
    {
      "id": 16,
      "name": "Wib",
      "color": "olive",
      "funny_fact": "Wib's favorite food is cosmic cotton candy!",
      "location": {
        "longitude": 4.4773,
        "latitude": 51.9249
      }
    },
    {
      "id": 17,
      "name": "Yip",
      "color": "lavender",
      "funny_fact": "Yip dreams of being a space DJ!",
      "location": {
        "longitude": 4.4801,
        "latitude": 51.9217
      }
    },
    {
      "id": 18,
      "name": "Nix",
      "color": "salmon",
      "funny_fact": "Nix can recite the entire history of the universe!",
      "location": {
        "longitude": 4.4790,
        "latitude": 51.9231
      }
    },
    {
      "id": 19,
      "name": "Vorb",
      "color": "gold",
      "funny_fact": "Vorb once caught a shooting star bare-handed!",
      "location": {
        "longitude": 4.4757,
        "latitude": 51.9223
      }
    },
    {
      "id": 20,
      "name": "Zeep",
      "color": "silver",
      "funny_fact": "Zeep can speak over 50 alien languages!",
      "location": {
        "longitude": 4.4764,
        "latitude": 51.9246
      }
    },
    {
      "id": 21,
      "name": "Clop",
      "color": "peach",
      "funny_fact": "Clop is a space yoga instructor!",
      "location": {
        "longitude": 4.4789,
        "latitude": 51.9228
      }
    },
    {
      "id": 22,
      "name": "Droop",
      "color": "rose",
      "funny_fact": "Droop enjoys stargazing while sipping comet tea!",
      "location": {
        "longitude": 4.4771,
        "latitude": 51.9241
      }
    },
    {
      "id": 23,
      "name": "Xip",
      "color": "emerald",
      "funny_fact": "Xip's spaceship is shaped like a giant space peanut!",
      "location": {
        "longitude": 4.4765,
        "latitude": 51.9234
      }
    },
    {
      "id": 24,
      "name": "Rup",
      "color": "cobalt",
      "funny_fact": "Rup can teleport short distances!",
      "location": {
        "longitude": 4.4806,
        "latitude": 51.9216
      }
    },
    {
      "id": 25,
      "name": "Trix",
      "color": "aqua",
      "funny_fact": "Trix can mimic the sound of any spaceship!",
      "location": {
        "longitude": 4.4793,
        "latitude": 51.9243
      }
    },
    {
      "id": 26,
      "name": "Floop",
      "color": "crimson",
      "funny_fact": "Floop once threw a party in a black hole!",
      "location": {
        "longitude": 4.4754,
        "latitude": 51.9237
      }
    },
    {
      "id": 27,
      "name": "Worb",
      "color": "periwinkle",
      "funny_fact": "Worb is a champion of interstellar hopscotch!",
      "location": {
        "longitude": 4.4778,
        "latitude": 51.9222
      }
    },
    {
      "id": 28,
      "name": "Prax",
      "color": "sapphire",
      "funny_fact": "Prax's favorite game is cosmic hide-and-seek!",
      "location": {
        "longitude": 4.4767,
        "latitude": 51.9240
      }
    },
    {
      "id": 29,
      "name": "Zim",
      "color": "fuchsia",
      "funny_fact": "Zim is a master of galactic chess!",
      "location": {
        "longitude": 4.4799,
        "latitude": 51.9232
      }
    }
  ]
}
